[
  {
    "event_id": "mocoa_avalancha_2017",
    "date": "2017-04-01",
    "description": "Avalancha torrencial; 6 watercourses; 17 barrios destroyed",
    "region": "putumayo",
    "location_id": "mocoa",
    "location_name": "Mocoa, Putumayo",
    "municipality": "Mocoa",
    "department": "Putumayo",
    "lon": -76.6534,
    "lat": 1.1463
  },
  {
    "event_id": "cara_de_gato_2021",
    "date": "2021-08-27",
    "description": "Cara de Gato dike breach #1; start of La Niña 2021–2023 chronic crisis",
    "region": "la_mojana",
    "location_id": "ayapel",
    "location_name": "Ayapel, Córdoba",
    "municipality": "Ayapel",
    "department": "Córdoba",
    "lon": -75.1389,
    "lat": 8.3128
  },
  {
    "event_id": "cara_de_gato_2021",
    "date": "2021-08-27",
    "description": "Cara de Gato dike breach #1; start of La Niña 2021–2023 chronic crisis",
    "region": "la_mojana",
    "location_id": "caimito",
    "location_name": "Caimito, Sucre",
    "municipality": "Caimito",
    "department": "Sucre",
    "lon": -75.1147,
    "lat": 8.7906
  },
  {
    "event_id": "cara_de_gato_2021",
    "date": "2021-08-27",
    "description": "Cara de Gato dike breach #1; start of La Niña 2021–2023 chronic crisis",
    "region": "la_mojana",
    "location_id": "guaranda",
    "location_name": "Guaranda, Sucre",
    "municipality": "Guaranda",
    "department": "Sucre",
    "lon": -74.5392,
    "lat": 8.4694
  },
  {
    "event_id": "cara_de_gato_2021",
    "date": "2021-08-27",
    "description": "Cara de Gato dike breach #1; start of La Niña 2021–2023 chronic crisis",
    "region": "la_mojana",
    "location_id": "majagual",
    "location_name": "Majagual, Sucre",
    "municipality": "Majagual",
    "department": "Sucre",
    "lon": -74.6356,
    "lat": 8.5417
  },
  {
    "event_id": "cara_de_gato_2021",
    "date": "2021-08-27",
    "description": "Cara de Gato dike breach #1; start of La Niña 2021–2023 chronic crisis",
    "region": "la_mojana",
    "location_id": "san_benito_abad",
    "location_name": "San Benito Abad, Sucre",
    "municipality": "San Benito Abad",
    "department": "Sucre",
    "lon": -75.0319,
    "lat": 8.9275
  },
  {
    "event_id": "cara_de_gato_2021",
    "date": "2021-08-27",
    "description": "Cara de Gato dike breach #1; start of La Niña 2021–2023 chronic crisis",
    "region": "la_mojana",
    "location_id": "san_jacinto_del_cauca",
    "location_name": "San Jacinto del Cauca, Bolívar",
    "municipality": "San Jacinto del Cauca",
    "department": "Bolívar",
    "lon": -74.7167,
    "lat": 8.25
  },
  {
    "event_id": "cara_de_gato_2021",
    "date": "2021-08-27",
    "description": "Cara de Gato dike breach #1; start of La Niña 2021–2023 chronic crisis",
    "region": "la_mojana",
    "location_id": "san_marcos",
    "location_name": "San Marcos, Sucre",
    "municipality": "San Marcos",
    "department": "Sucre",
    "lon": -75.1283,
    "lat": 8.6622
  },
  {
    "event_id": "cara_de_gato_2021",
    "date": "2021-08-27",
    "description": "Cara de Gato dike breach #1; start of La Niña 2021–2023 chronic crisis",
    "region": "la_mojana",
    "location_id": "sucre_cabecera",
    "location_name": "Sucre (cabecera), Sucre",
    "municipality": "Sucre (cabecera)",
    "department": "Sucre",
    "lon": -74.7197,
    "lat": 8.8125
  },
  {
    "event_id": "la_mojana_peak_2022",
    "date": "2022-04-17",
    "description": "~590,000 ha flooded nationwide; ~136,000 ha La Mojana",
    "region": "la_mojana",
    "location_id": "ayapel",
    "location_name": "Ayapel, Córdoba",
    "municipality": "Ayapel",
    "department": "Córdoba",
    "lon": -75.1389,
    "lat": 8.3128
  },
  {
    "event_id": "la_mojana_peak_2022",
    "date": "2022-04-17",
    "description": "~590,000 ha flooded nationwide; ~136,000 ha La Mojana",
    "region": "la_mojana",
    "location_id": "caimito",
    "location_name": "Caimito, Sucre",
    "municipality": "Caimito",
    "department": "Sucre",
    "lon": -75.1147,
    "lat": 8.7906
  },
  {
    "event_id": "la_mojana_peak_2022",
    "date": "2022-04-17",
    "description": "~590,000 ha flooded nationwide; ~136,000 ha La Mojana",
    "region": "la_mojana",
    "location_id": "guaranda",
    "location_name": "Guaranda, Sucre",
    "municipality": "Guaranda",
    "department": "Sucre",
    "lon": -74.5392,
    "lat": 8.4694
  },
  {
    "event_id": "la_mojana_peak_2022",
    "date": "2022-04-17",
    "description": "~590,000 ha flooded nationwide; ~136,000 ha La Mojana",
    "region": "la_mojana",
    "location_id": "majagual",
    "location_name": "Majagual, Sucre",
    "municipality": "Majagual",
    "department": "Sucre",
    "lon": -74.6356,
    "lat": 8.5417
  },
  {
    "event_id": "la_mojana_peak_2022",
    "date": "2022-04-17",
    "description": "~590,000 ha flooded nationwide; ~136,000 ha La Mojana",
    "region": "la_mojana",
    "location_id": "san_benito_abad",
    "location_name": "San Benito Abad, Sucre",
    "municipality": "San Benito Abad",
    "department": "Sucre",
    "lon": -75.0319,
    "lat": 8.9275
  },
  {
    "event_id": "la_mojana_peak_2022",
    "date": "2022-04-17",
    "description": "~590,000 ha flooded nationwide; ~136,000 ha La Mojana",
    "region": "la_mojana",
    "location_id": "san_jacinto_del_cauca",
    "location_name": "San Jacinto del Cauca, Bolívar",
    "municipality": "San Jacinto del Cauca",
    "department": "Bolívar",
    "lon": -74.7167,
    "lat": 8.25
  },
  {
    "event_id": "la_mojana_peak_2022",
    "date": "2022-04-17",
    "description": "~590,000 ha flooded nationwide; ~136,000 ha La Mojana",
    "region": "la_mojana",
    "location_id": "san_marcos",
    "location_name": "San Marcos, Sucre",
    "municipality": "San Marcos",
    "department": "Sucre",
    "lon": -75.1283,
    "lat": 8.6622
  },
  {
    "event_id": "la_mojana_peak_2022",
    "date": "2022-04-17",
    "description": "~590,000 ha flooded nationwide; ~136,000 ha La Mojana",
    "region": "la_mojana",
    "location_id": "sucre_cabecera",
    "location_name": "Sucre (cabecera), Sucre",
    "municipality": "Sucre (cabecera)",
    "department": "Sucre",
    "lon": -74.7197,
    "lat": 8.8125
  },
  {
    "event_id": "cara_de_gato_2024",
    "date": "2024-05-06",
    "description": "Cara de Gato breach #2 (after Feb 2024 rebuild)",
    "region": "la_mojana",
    "location_id": "ayapel",
    "location_name": "Ayapel, Córdoba",
    "municipality": "Ayapel",
    "department": "Córdoba",
    "lon": -75.1389,
    "lat": 8.3128
  },
  {
    "event_id": "cara_de_gato_2024",
    "date": "2024-05-06",
    "description": "Cara de Gato breach #2 (after Feb 2024 rebuild)",
    "region": "la_mojana",
    "location_id": "caimito",
    "location_name": "Caimito, Sucre",
    "municipality": "Caimito",
    "department": "Sucre",
    "lon": -75.1147,
    "lat": 8.7906
  },
  {
    "event_id": "cara_de_gato_2024",
    "date": "2024-05-06",
    "description": "Cara de Gato breach #2 (after Feb 2024 rebuild)",
    "region": "la_mojana",
    "location_id": "guaranda",
    "location_name": "Guaranda, Sucre",
    "municipality": "Guaranda",
    "department": "Sucre",
    "lon": -74.5392,
    "lat": 8.4694
  },
  {
    "event_id": "cara_de_gato_2024",
    "date": "2024-05-06",
    "description": "Cara de Gato breach #2 (after Feb 2024 rebuild)",
    "region": "la_mojana",
    "location_id": "majagual",
    "location_name": "Majagual, Sucre",
    "municipality": "Majagual",
    "department": "Sucre",
    "lon": -74.6356,
    "lat": 8.5417
  },
  {
    "event_id": "cara_de_gato_2024",
    "date": "2024-05-06",
    "description": "Cara de Gato breach #2 (after Feb 2024 rebuild)",
    "region": "la_mojana",
    "location_id": "san_benito_abad",
    "location_name": "San Benito Abad, Sucre",
    "municipality": "San Benito Abad",
    "department": "Sucre",
    "lon": -75.0319,
    "lat": 8.9275
  },
  {
    "event_id": "cara_de_gato_2024",
    "date": "2024-05-06",
    "description": "Cara de Gato breach #2 (after Feb 2024 rebuild)",
    "region": "la_mojana",
    "location_id": "san_jacinto_del_cauca",
    "location_name": "San Jacinto del Cauca, Bolívar",
    "municipality": "San Jacinto del Cauca",
    "department": "Bolívar",
    "lon": -74.7167,
    "lat": 8.25
  },
  {
    "event_id": "cara_de_gato_2024",
    "date": "2024-05-06",
    "description": "Cara de Gato breach #2 (after Feb 2024 rebuild)",
    "region": "la_mojana",
    "location_id": "san_marcos",
    "location_name": "San Marcos, Sucre",
    "municipality": "San Marcos",
    "department": "Sucre",
    "lon": -75.1283,
    "lat": 8.6622
  },
  {
    "event_id": "cara_de_gato_2024",
    "date": "2024-05-06",
    "description": "Cara de Gato breach #2 (after Feb 2024 rebuild)",
    "region": "la_mojana",
    "location_id": "sucre_cabecera",
    "location_name": "Sucre (cabecera), Sucre",
    "municipality": "Sucre (cabecera)",
    "department": "Sucre",
    "lon": -74.7197,
    "lat": 8.8125
  },
  {
    "event_id": "los_arrastres_2024",
    "date": "2024-05-08",
    "description": "Los Arrastres dike breach (event #2 of May 2024)",
    "region": "la_mojana",
    "location_id": "ayapel",
    "location_name": "Ayapel, Córdoba",
    "municipality": "Ayapel",
    "department": "Córdoba",
    "lon": -75.1389,
    "lat": 8.3128
  },
  {
    "event_id": "los_arrastres_2024",
    "date": "2024-05-08",
    "description": "Los Arrastres dike breach (event #2 of May 2024)",
    "region": "la_mojana",
    "location_id": "caimito",
    "location_name": "Caimito, Sucre",
    "municipality": "Caimito",
    "department": "Sucre",
    "lon": -75.1147,
    "lat": 8.7906
  },
  {
    "event_id": "los_arrastres_2024",
    "date": "2024-05-08",
    "description": "Los Arrastres dike breach (event #2 of May 2024)",
    "region": "la_mojana",
    "location_id": "guaranda",
    "location_name": "Guaranda, Sucre",
    "municipality": "Guaranda",
    "department": "Sucre",
    "lon": -74.5392,
    "lat": 8.4694
  },
  {
    "event_id": "los_arrastres_2024",
    "date": "2024-05-08",
    "description": "Los Arrastres dike breach (event #2 of May 2024)",
    "region": "la_mojana",
    "location_id": "majagual",
    "location_name": "Majagual, Sucre",
    "municipality": "Majagual",
    "department": "Sucre",
    "lon": -74.6356,
    "lat": 8.5417
  },
  {
    "event_id": "los_arrastres_2024",
    "date": "2024-05-08",
    "description": "Los Arrastres dike breach (event #2 of May 2024)",
    "region": "la_mojana",
    "location_id": "san_benito_abad",
    "location_name": "San Benito Abad, Sucre",
    "municipality": "San Benito Abad",
    "department": "Sucre",
    "lon": -75.0319,
    "lat": 8.9275
  },
  {
    "event_id": "los_arrastres_2024",
    "date": "2024-05-08",
    "description": "Los Arrastres dike breach (event #2 of May 2024)",
    "region": "la_mojana",
    "location_id": "san_jacinto_del_cauca",
    "location_name": "San Jacinto del Cauca, Bolívar",
    "municipality": "San Jacinto del Cauca",
    "department": "Bolívar",
    "lon": -74.7167,
    "lat": 8.25
  },
  {
    "event_id": "los_arrastres_2024",
    "date": "2024-05-08",
    "description": "Los Arrastres dike breach (event #2 of May 2024)",
    "region": "la_mojana",
    "location_id": "san_marcos",
    "location_name": "San Marcos, Sucre",
    "municipality": "San Marcos",
    "department": "Sucre",
    "lon": -75.1283,
    "lat": 8.6622
  },
  {
    "event_id": "los_arrastres_2024",
    "date": "2024-05-08",
    "description": "Los Arrastres dike breach (event #2 of May 2024)",
    "region": "la_mojana",
    "location_id": "sucre_cabecera",
    "location_name": "Sucre (cabecera), Sucre",
    "municipality": "Sucre (cabecera)",
    "department": "Sucre",
    "lon": -74.7197,
    "lat": 8.8125
  },
  {
    "event_id": "la_mojana_peak_2024",
    "date": "2024-06-11",
    "description": "Peak inundation 2024 (~860,000 ha nationwide)",
    "region": "la_mojana",
    "location_id": "ayapel",
    "location_name": "Ayapel, Córdoba",
    "municipality": "Ayapel",
    "department": "Córdoba",
    "lon": -75.1389,
    "lat": 8.3128
  },
  {
    "event_id": "la_mojana_peak_2024",
    "date": "2024-06-11",
    "description": "Peak inundation 2024 (~860,000 ha nationwide)",
    "region": "la_mojana",
    "location_id": "caimito",
    "location_name": "Caimito, Sucre",
    "municipality": "Caimito",
    "department": "Sucre",
    "lon": -75.1147,
    "lat": 8.7906
  },
  {
    "event_id": "la_mojana_peak_2024",
    "date": "2024-06-11",
    "description": "Peak inundation 2024 (~860,000 ha nationwide)",
    "region": "la_mojana",
    "location_id": "guaranda",
    "location_name": "Guaranda, Sucre",
    "municipality": "Guaranda",
    "department": "Sucre",
    "lon": -74.5392,
    "lat": 8.4694
  },
  {
    "event_id": "la_mojana_peak_2024",
    "date": "2024-06-11",
    "description": "Peak inundation 2024 (~860,000 ha nationwide)",
    "region": "la_mojana",
    "location_id": "majagual",
    "location_name": "Majagual, Sucre",
    "municipality": "Majagual",
    "department": "Sucre",
    "lon": -74.6356,
    "lat": 8.5417
  },
  {
    "event_id": "la_mojana_peak_2024",
    "date": "2024-06-11",
    "description": "Peak inundation 2024 (~860,000 ha nationwide)",
    "region": "la_mojana",
    "location_id": "san_benito_abad",
    "location_name": "San Benito Abad, Sucre",
    "municipality": "San Benito Abad",
    "department": "Sucre",
    "lon": -75.0319,
    "lat": 8.9275
  },
  {
    "event_id": "la_mojana_peak_2024",
    "date": "2024-06-11",
    "description": "Peak inundation 2024 (~860,000 ha nationwide)",
    "region": "la_mojana",
    "location_id": "san_jacinto_del_cauca",
    "location_name": "San Jacinto del Cauca, Bolívar",
    "municipality": "San Jacinto del Cauca",
    "department": "Bolívar",
    "lon": -74.7167,
    "lat": 8.25
  },
  {
    "event_id": "la_mojana_peak_2024",
    "date": "2024-06-11",
    "description": "Peak inundation 2024 (~860,000 ha nationwide)",
    "region": "la_mojana",
    "location_id": "san_marcos",
    "location_name": "San Marcos, Sucre",
    "municipality": "San Marcos",
    "department": "Sucre",
    "lon": -75.1283,
    "lat": 8.6622
  },
  {
    "event_id": "la_mojana_peak_2024",
    "date": "2024-06-11",
    "description": "Peak inundation 2024 (~860,000 ha nationwide)",
    "region": "la_mojana",
    "location_id": "sucre_cabecera",
    "location_name": "Sucre (cabecera), Sucre",
    "municipality": "Sucre (cabecera)",
    "department": "Sucre",
    "lon": -74.7197,
    "lat": 8.8125
  },
  {
    "event_id": "puerto_leguizamo_calamidad_2025",
    "date": "2025-04-10",
    "description": "Puerto Leguízamo declares calamidad pública",
    "region": "putumayo",
    "location_id": "puerto_leguizamo",
    "location_name": "Puerto Leguízamo, Putumayo",
    "municipality": "Puerto Leguízamo",
    "department": "Putumayo",
    "lon": -74.7822,
    "lat": -0.1933
  },
  {
    "event_id": "putumayo_decreto_0472_2025",
    "date": "2025-07-23",
    "description": "Gobernación emits Decreto 0472 — calamidad pública departamental",
    "region": "putumayo",
    "location_id": "colon_putumayo",
    "location_name": "Colón, Putumayo",
    "municipality": "Colón",
    "department": "Putumayo",
    "lon": -76.9667,
    "lat": 1.1875
  },
  {
    "event_id": "putumayo_decreto_0472_2025",
    "date": "2025-07-23",
    "description": "Gobernación emits Decreto 0472 — calamidad pública departamental",
    "region": "putumayo",
    "location_id": "puerto_asis",
    "location_name": "Puerto Asís, Putumayo",
    "municipality": "Puerto Asís",
    "department": "Putumayo",
    "lon": -76.4972,
    "lat": 0.5036
  },
  {
    "event_id": "putumayo_decreto_0472_2025",
    "date": "2025-07-23",
    "description": "Gobernación emits Decreto 0472 — calamidad pública departamental",
    "region": "putumayo",
    "location_id": "puerto_guzman",
    "location_name": "Puerto Guzmán, Putumayo",
    "municipality": "Puerto Guzmán",
    "department": "Putumayo",
    "lon": -76.4072,
    "lat": 0.9636
  },
  {
    "event_id": "putumayo_decreto_0472_2025",
    "date": "2025-07-23",
    "description": "Gobernación emits Decreto 0472 — calamidad pública departamental",
    "region": "putumayo",
    "location_id": "puerto_leguizamo",
    "location_name": "Puerto Leguízamo, Putumayo",
    "municipality": "Puerto Leguízamo",
    "department": "Putumayo",
    "lon": -74.7822,
    "lat": -0.1933
  },
  {
    "event_id": "putumayo_decreto_0472_2025",
    "date": "2025-07-23",
    "description": "Gobernación emits Decreto 0472 — calamidad pública departamental",
    "region": "putumayo",
    "location_id": "santiago_putumayo",
    "location_name": "Santiago, Putumayo",
    "municipality": "Santiago",
    "department": "Putumayo",
    "lon": -77.0033,
    "lat": 1.1467
  },
  {
    "event_id": "cara_de_gato_2025",
    "date": "2025-08-27",
    "description": "Cara de Gato breach #3",
    "region": "la_mojana",
    "location_id": "ayapel",
    "location_name": "Ayapel, Córdoba",
    "municipality": "Ayapel",
    "department": "Córdoba",
    "lon": -75.1389,
    "lat": 8.3128
  },
  {
    "event_id": "cara_de_gato_2025",
    "date": "2025-08-27",
    "description": "Cara de Gato breach #3",
    "region": "la_mojana",
    "location_id": "caimito",
    "location_name": "Caimito, Sucre",
    "municipality": "Caimito",
    "department": "Sucre",
    "lon": -75.1147,
    "lat": 8.7906
  },
  {
    "event_id": "cara_de_gato_2025",
    "date": "2025-08-27",
    "description": "Cara de Gato breach #3",
    "region": "la_mojana",
    "location_id": "guaranda",
    "location_name": "Guaranda, Sucre",
    "municipality": "Guaranda",
    "department": "Sucre",
    "lon": -74.5392,
    "lat": 8.4694
  },
  {
    "event_id": "cara_de_gato_2025",
    "date": "2025-08-27",
    "description": "Cara de Gato breach #3",
    "region": "la_mojana",
    "location_id": "majagual",
    "location_name": "Majagual, Sucre",
    "municipality": "Majagual",
    "department": "Sucre",
    "lon": -74.6356,
    "lat": 8.5417
  },
  {
    "event_id": "cara_de_gato_2025",
    "date": "2025-08-27",
    "description": "Cara de Gato breach #3",
    "region": "la_mojana",
    "location_id": "san_benito_abad",
    "location_name": "San Benito Abad, Sucre",
    "municipality": "San Benito Abad",
    "department": "Sucre",
    "lon": -75.0319,
    "lat": 8.9275
  },
  {
    "event_id": "cara_de_gato_2025",
    "date": "2025-08-27",
    "description": "Cara de Gato breach #3",
    "region": "la_mojana",
    "location_id": "san_jacinto_del_cauca",
    "location_name": "San Jacinto del Cauca, Bolívar",
    "municipality": "San Jacinto del Cauca",
    "department": "Bolívar",
    "lon": -74.7167,
    "lat": 8.25
  },
  {
    "event_id": "cara_de_gato_2025",
    "date": "2025-08-27",
    "description": "Cara de Gato breach #3",
    "region": "la_mojana",
    "location_id": "san_marcos",
    "location_name": "San Marcos, Sucre",
    "municipality": "San Marcos",
    "department": "Sucre",
    "lon": -75.1283,
    "lat": 8.6622
  },
  {
    "event_id": "cara_de_gato_2025",
    "date": "2025-08-27",
    "description": "Cara de Gato breach #3",
    "region": "la_mojana",
    "location_id": "sucre_cabecera",
    "location_name": "Sucre (cabecera), Sucre",
    "municipality": "Sucre (cabecera)",
    "department": "Sucre",
    "lon": -74.7197,
    "lat": 8.8125
  }
]
